City_ID,City,Lat,Lng,Max Temp,Humidity,Cloudiness,Wind Speed,Country,Date
0,anadyr,64.75,177.4833,21.7,93,100,11.18,RU,1699468549
1,nova vicosa,-17.8919,-39.3719,78.19,54,0,9.98,BR,1699468549
2,hawaiian paradise park,19.5933,-154.9731,76.51,78,75,5.75,US,1699468549
3,san fernando,15.0286,120.6898,80.33,87,27,4.12,PH,1699468549
4,quelimane,-17.8786,36.8883,79.45,85,69,6.64,MZ,1699468550
5,liwale,-9.7667,37.9333,77.09,66,6,7.85,TZ,1699468550
6,queenstown,-31.8976,26.8753,56.21,84,77,10.18,ZA,1699468550
7,port-aux-francais,-49.35,70.2167,41.52,95,99,30.33,TF,1699468550
8,padangsidempuan,1.3667,99.2667,72.12,99,100,1.68,ID,1699468551
9,port elizabeth,-33.918,25.5701,60.31,83,0,8.05,ZA,1699468551
10,sao vicente,-23.9631,-46.3919,99.27,45,0,5.75,BR,1699468551
11,kodiak,57.79,-152.4072,31.51,93,20,8.05,US,1699468551
12,el granada,37.5027,-122.4694,66.94,50,0,6.91,US,1699468436
13,taoudenni,22.6783,-3.9836,78.4,18,0,9.75,ML,1699468551
14,waitangi,-43.9535,-176.5597,48.81,90,100,7.0,NZ,1699468521
15,blackmans bay,-43.0167,147.3167,57.72,95,100,2.59,AU,1699468552
16,ust-nera,64.5667,143.2,-20.96,99,100,3.44,RU,1699468341
17,iqaluit,63.7506,-68.5145,15.53,67,75,2.3,CA,1699468552
18,lebu,-37.6167,-73.65,56.77,72,0,17.52,CL,1699468552
19,whitehorse,60.7161,-135.0538,32.81,80,75,18.41,CA,1699468552
20,talnakh,69.4865,88.3972,20.21,93,100,21.94,RU,1699468553
21,antsiranana,-12.2787,49.2917,77.72,81,7,12.84,MG,1699468553
22,aasiaat,68.7098,-52.8699,19.62,91,100,3.33,GL,1699468553
23,kingston,17.997,-76.7936,88.75,66,40,8.05,JM,1699468502
24,khanbari,27.3747,87.2039,58.21,81,37,2.35,NP,1699468553
25,ponta delgada,37.7333,-25.6667,69.19,94,75,13.8,PT,1699468553
26,lazaro cardenas,17.9583,-102.2,86.02,67,13,6.73,MX,1699468553
27,fonte boa,-2.4959,-66.2662,79.23,86,98,2.82,BR,1699468554
28,uturoa,-16.7333,-151.4333,77.85,79,31,19.13,PF,1699468554
29,chernyshevsk,52.5243,117.0174,13.3,74,100,5.86,RU,1699468554
30,tazovsky,67.4667,78.7,29.97,94,100,20.15,RU,1699468554
31,grytviken,-54.2811,-36.5092,40.87,68,87,9.82,GS,1699468554
32,puerto ayora,-0.7393,-90.3518,84.16,92,100,8.99,EC,1699468554
33,tura,25.5198,90.2201,64.0,81,0,2.68,IN,1699468555
34,puerto aysen,-45.4,-72.7,52.18,79,90,5.7,CL,1699468555
35,abepura,-2.6333,140.5833,76.01,83,20,0.0,ID,1699468555
36,avarua,-21.2078,-159.775,75.25,69,20,13.8,CK,1699468555
37,edinburgh of the seven seas,-37.0676,-12.3116,56.41,77,20,23.4,SH,1699468555
38,dampit,-8.2116,112.7493,71.53,92,77,1.21,ID,1699468555
39,yellowknife,62.456,-114.3525,18.41,95,75,3.44,CA,1699468556
40,nurhak,37.9629,37.4202,53.4,51,5,2.91,TR,1699468305
41,greenville,35.6127,-77.3663,78.13,38,0,6.91,US,1699468342
42,ebaye,8.7748,167.7392,82.42,83,40,16.11,MH,1699468556
43,yamada,39.4667,141.95,49.95,77,91,1.77,JP,1699468556
44,ribeira grande,38.5167,-28.7,68.4,94,75,3.44,PT,1699468556
45,altay,47.8667,88.1167,23.18,74,78,6.24,CN,1699468557
46,ilulissat,69.2167,-51.1,24.82,74,75,2.3,GL,1699468557
47,saint-philippe,-21.3585,55.7679,74.79,79,38,7.56,RE,1699468557
48,santa helena,-2.2311,-45.3,100.22,25,95,6.62,BR,1699468557
49,punta arenas,-53.15,-70.9167,51.91,46,75,25.32,CL,1699468557
50,guangshui,31.6199,113.9978,62.6,82,100,1.19,CN,1699468558
51,minas de marcona,-15.2119,-75.1103,68.58,54,60,14.97,PE,1699468558
52,pisco,-13.7,-76.2167,71.02,78,19,10.36,PE,1699468476
53,san ignacio rio muerto,27.4167,-110.2333,81.12,28,56,14.38,MX,1699468558
54,qaqortoq,60.7167,-46.0333,33.94,87,100,5.23,GL,1699468558
55,adamstown,-25.066,-130.1015,72.7,86,100,19.93,PN,1699468559
56,jamestown,42.097,-79.2353,44.53,70,100,6.91,US,1699468324
57,labrador city,52.9463,-66.9114,17.51,73,75,16.11,CA,1699468559
58,ushuaia,-54.8,-68.3,49.66,42,40,12.66,AR,1699468291
59,papatowai,-46.5619,169.4708,47.79,87,100,10.2,NZ,1699468559
60,pitkyaranta,61.5734,31.4792,37.51,97,100,9.15,RU,1699468560
61,pasuquin,18.3328,120.6177,78.75,89,20,1.14,PH,1699468560
62,bilibino,68.0546,166.4372,-2.97,98,100,3.71,RU,1699468560
63,ciudad lazaro cardenas,17.9583,-102.2,86.02,67,13,6.73,MX,1699468401
64,lethem,3.3803,-59.7968,96.85,49,40,3.69,GY,1699468560
65,acarau,-2.8856,-40.12,85.66,63,100,19.51,BR,1699468560
66,onguday,50.75,86.15,18.32,96,94,2.35,RU,1699468561
67,longyearbyen,78.2186,15.6401,26.44,74,40,12.66,SJ,1699468561
68,lihue,21.9789,-159.3672,78.39,83,75,10.36,US,1699468561
69,itapetininga,-23.5917,-48.0531,88.68,34,1,2.59,BR,1699468493
70,vadso,70.0744,29.7487,29.28,74,75,10.36,NO,1699468562
71,sabang,5.8933,95.3214,81.19,78,97,8.97,ID,1699468562
72,waddan,29.1614,16.139,77.0,22,100,6.06,LY,1699468563
73,baruun-urt,46.6806,113.2792,-1.71,91,54,9.98,MN,1699468563
74,flying fish cove,-10.4217,105.6791,78.48,88,75,5.75,CX,1699468345
75,huadian,42.9633,126.7478,32.18,99,100,2.19,CN,1699468564
76,college,64.8569,-147.8028,19.38,86,75,4.61,US,1699468565
77,kot samaba,28.5522,70.4684,77.81,35,34,4.07,PK,1699468565
78,invercargill,-46.4,168.35,48.02,95,100,4.0,NZ,1699468339
79,oamaru,-45.0784,170.9801,48.54,71,100,4.36,NZ,1699468566
80,dhidhdhoo,6.8833,73.1,82.58,72,99,2.06,MV,1699468566
81,susuman,62.7833,148.1667,-17.54,99,96,1.92,RU,1699468567
82,iskateley,67.6803,53.1512,33.03,100,100,8.99,RU,1699468568
83,namibe,-15.1961,12.1522,66.9,83,1,3.42,AO,1699468569
84,albany,42.6001,-73.9662,41.04,52,93,8.28,US,1699468351
85,callao,-12.0667,-77.15,70.09,73,75,10.36,PE,1699468569
86,isafjordur,66.0755,-23.124,41.04,70,75,28.77,IS,1699468570
87,burang,30.25,81.1667,28.6,74,54,3.27,CN,1699468570
88,buala,-8.145,159.5921,79.41,86,100,7.29,SB,1699468570
89,vilyuchinsk,52.9306,158.4028,26.92,77,8,10.47,RU,1699468570
90,sohbatpur,28.5202,68.5434,76.14,36,6,1.45,PK,1699468571
91,san patricio,28.017,-97.5169,86.18,54,21,15.3,US,1699468571
92,codrington,-38.2667,141.9667,57.27,76,100,6.4,AU,1699468572
93,pontes e lacerda,-15.2261,-59.3353,104.43,22,100,5.53,BR,1699468313
94,egilsstadir,65.2653,-14.3948,37.31,93,100,19.57,IS,1699468572
95,carutapera,-1.195,-46.02,86.36,60,100,11.43,BR,1699468573
96,alo,7.4178,6.7371,83.84,67,62,2.19,NG,1699468573
97,miracema do tocantins,-9.5618,-48.3967,94.73,36,58,4.27,BR,1699468573
98,bethel,41.3712,-73.414,48.02,46,0,12.66,US,1699468573
99,greymouth,-42.4667,171.2,53.13,86,100,3.71,NZ,1699468574
100,east london,-33.0153,27.9116,65.34,82,100,6.91,ZA,1699468574
101,tiksi,71.6872,128.8694,-7.91,98,66,7.99,RU,1699468574
102,margaret river,-33.95,115.0667,59.74,84,100,12.12,AU,1699468335
103,kenai,60.5544,-151.2583,34.14,94,100,9.22,US,1699468575
104,atafu village,-8.5421,-172.5159,84.4,72,100,15.19,TK,1699468575
105,ambon,-3.6954,128.1814,77.14,94,40,3.44,ID,1699468575
106,puerto natales,-51.7236,-72.4875,55.85,44,75,29.93,CL,1699468575
107,polygyros,40.3744,23.4383,59.92,75,92,5.21,GR,1699468576
108,port lincoln,-34.7333,135.8667,57.54,92,10,13.51,AU,1699468576
109,petropavlovsk-kamchatsky,53.0452,158.6483,25.45,73,0,21.0,RU,1699468576
110,kone,-21.0595,164.8658,67.82,75,26,4.72,NC,1699468577
111,antonio enes,-16.2325,39.9086,80.87,72,6,12.03,MZ,1699468577
112,port blair,11.6667,92.75,78.84,94,20,2.3,IN,1699468577
113,apolinario saravia,-24.4328,-63.9954,93.76,33,7,12.66,AR,1699468577
114,menongue,-14.6585,17.691,65.84,85,20,8.05,AO,1699468578
115,tuy hoa,13.0833,109.3,76.89,91,100,2.51,VN,1699468578
116,daru,-9.0763,143.2092,76.62,82,96,12.06,PG,1699468579
117,west island,-12.1568,96.8225,78.78,83,75,11.5,CC,1699468579
118,wailua homesteads,22.0669,-159.378,77.79,87,75,10.36,US,1699468579
119,ust'-kut,56.7938,105.7672,12.38,94,98,3.67,RU,1699468580
120,alice springs,-23.7,133.8833,81.95,26,100,10.36,AU,1699468580
121,dunedin,-45.8742,170.5036,50.81,71,90,11.99,NZ,1699468069
122,boende,-0.2167,20.8667,76.6,86,29,3.02,CD,1699468581
123,lata,40.1629,-8.3327,58.08,96,100,9.55,PT,1699468581
124,bel ombre,-4.6167,55.4167,80.44,83,20,3.44,SC,1699468581
125,remire-montjoly,4.9167,-52.2667,89.64,66,20,13.8,GF,1699468581
126,kyaikto,17.3,97.0167,78.33,84,29,1.72,MM,1699468581
127,olonkinbyen,70.9221,-8.7187,31.78,82,55,10.94,SJ,1699468582
128,chebba,35.2372,11.115,66.83,59,4,19.42,TN,1699468582
129,yarmouth,41.7057,-70.2286,46.87,54,0,18.01,US,1699468582
130,weno,7.4515,151.8468,82.35,83,75,8.05,FM,1699468582
131,chonchi,-42.6128,-73.8092,54.61,61,90,0.87,CL,1699468583
132,bardai,11.65,7.2333,77.72,19,10,6.08,NG,1699468583
133,ghorawal,24.7667,82.7833,68.18,44,0,4.16,IN,1699468583
134,touros,-5.1989,-35.4608,82.42,67,33,18.32,BR,1699468583
135,pacific grove,36.6177,-121.9166,67.39,59,0,7.0,US,1699468584
136,grootfontein,-19.5667,18.1167,85.57,23,20,3.44,NA,1699468584
137,port mathurin,-19.6833,63.4167,78.89,78,75,6.91,MU,1699468584
138,stanley,54.868,-1.6985,42.82,82,20,10.36,GB,1699468437
139,heunghae,36.1125,129.3522,51.98,82,80,4.36,KR,1699468586
140,nema,57.5067,50.5011,40.15,95,85,6.15,RU,1699468586
141,rakvere,59.3464,26.3558,38.97,92,92,3.38,EE,1699468586
142,zaltan,32.947,11.8665,70.12,74,100,18.16,LY,1699468587
143,bredasdorp,-34.5322,20.0403,57.09,68,0,4.05,ZA,1699468587
144,keflavik,64.0049,-22.5624,42.71,75,0,10.36,IS,1699468588
145,uromi,6.7,6.3333,74.75,87,100,4.63,NG,1699468588
146,utrik,11.2278,169.8474,81.7,81,98,24.56,MH,1699468588
147,kapa'a,22.0752,-159.319,79.12,87,75,10.36,US,1699468588
148,fort bragg,35.139,-79.006,81.82,44,0,3.44,US,1699468589
149,novodvinsk,64.4165,40.8122,32.79,99,100,8.63,RU,1699468589
150,port hedland,-20.3167,118.5667,78.85,89,0,3.44,AU,1699468589
151,st. paul,44.9444,-93.0933,49.46,78,0,4.61,US,1699468484
152,sitka,57.0531,-135.33,51.69,66,100,17.27,US,1699468590
153,mata-utu,-13.2816,-176.1745,81.41,84,98,10.27,WF,1699468590
154,la ronge,55.1001,-105.2842,34.05,86,100,4.61,CA,1699468590
155,afua,-0.1567,-50.3867,91.72,45,100,9.35,BR,1699468590
156,magadan,59.5667,150.8,-0.45,80,10,9.1,RU,1699468319
157,zhongxing,33.7039,118.6792,58.3,58,100,2.42,CN,1699468591
158,fale old settlement,-9.3852,-171.2468,84.16,69,100,15.05,TK,1699468591
159,dickinson,29.4608,-95.0513,85.14,66,40,12.66,US,1699468591
160,kuanda,56.3161,116.0806,10.08,78,96,3.6,RU,1699468337
161,yaren,-0.5472,166.916,84.43,81,100,16.98,NR,1699468591
162,beyneu,45.3167,55.2,48.18,84,6,10.85,KZ,1699468592
163,tindouf,27.6711,-8.1474,79.25,18,0,13.8,DZ,1699468592
164,porto novo,6.4965,2.6036,82.22,82,95,7.27,BJ,1699468592
165,alaghsas,17.0187,8.0168,85.89,10,0,11.5,NE,1699468592
166,lagoa,39.05,-27.9833,64.51,86,100,17.11,PT,1699468593
167,phan thiet,10.9333,108.1,78.12,89,100,6.4,VN,1699468593
168,badger,64.8,-147.5333,19.31,91,75,4.61,US,1699468593
169,hithadhoo,-0.6,73.0833,81.1,81,15,11.54,MV,1699468593
170,wegrow,52.3995,22.0163,45.37,81,98,10.51,PL,1699468594
171,bandarbeyla,9.4942,50.8122,79.66,78,100,12.88,SO,1699468486
172,port saint john's,-31.6229,29.5448,65.91,82,97,3.69,ZA,1699468594
173,santana,-0.0583,-51.1817,96.98,41,40,9.22,BR,1699468370
174,isla mujeres,21.2311,-86.731,84.25,62,99,8.7,MX,1699468595
175,tetyushi,54.9382,48.8366,41.67,91,20,9.31,RU,1699468595
176,tweed heads,-28.1817,153.547,62.19,87,3,3.44,AU,1699468383
177,floro,61.5996,5.0328,44.56,70,0,10.36,NO,1699468596
178,kailua-kona,19.6406,-155.9956,78.82,83,100,4.61,US,1699468596
179,sant antoni de portmany,38.9807,1.3036,59.97,66,0,2.3,ES,1699468596
180,homestead meadows south,31.811,-106.1643,81.55,24,15,22.62,US,1699468596
181,zambezi,-13.5432,23.1047,67.33,87,95,9.15,ZM,1699468597
182,selfoss,63.9331,-20.9971,36.25,61,20,14.09,IS,1699468597
183,georgetown,5.4112,100.3354,82.33,89,20,3.44,MY,1699468597
184,kapuskasing,49.4169,-82.4331,26.69,74,75,11.5,CA,1699468597
185,labytnangi,66.6572,66.4183,28.92,98,100,4.32,RU,1699468347
186,kudahuvadhoo,2.6708,72.8944,81.5,78,90,6.67,MV,1699468598
187,pemangkat,1.1667,108.9667,80.89,81,100,5.55,ID,1699468598
188,kasongo-lunda,-6.4667,16.8167,71.87,94,100,0.54,CD,1699468598
189,georgievka,49.3314,81.5761,31.37,59,100,5.84,KZ,1699468599
190,karachi,24.9056,67.0822,75.02,64,40,3.44,PK,1699468528
191,dwarka,22.2394,68.9678,81.7,64,6,9.93,IN,1699468599
192,demirci,39.0461,28.6589,58.48,55,63,1.88,TR,1699468599
193,union city,37.5958,-122.0192,66.63,49,0,3.0,US,1699468310
194,inaruwa,26.6011,87.1488,66.67,63,0,1.81,NP,1699468600
195,parabel',58.6978,81.4825,27.91,90,100,11.01,RU,1699468403
196,kristiansund,63.1115,7.732,39.85,75,0,5.75,NO,1699468600
197,cabo san lucas,22.8909,-109.9124,84.61,69,100,10.36,MX,1699468600
198,mount gambier,-37.8333,140.7667,55.78,77,90,5.53,AU,1699468601
199,ola,59.5833,151.2833,0.0,82,11,12.1,RU,1699468601
200,eenhana,-17.4667,16.3333,80.44,16,7,6.85,NA,1699468601
201,kavaratti,10.5669,72.642,83.53,73,83,6.51,IN,1699468601
202,sinan,34.8262,126.1086,50.11,79,100,10.42,KR,1699468601
203,hassi messaoud,31.6804,6.0729,75.06,50,33,8.05,DZ,1699468602
204,stephenville,32.2207,-98.2023,84.24,51,0,11.5,US,1699468602
205,midvagur,62.0511,-7.1939,43.63,87,100,28.77,FO,1699468602
206,melfort,52.8667,-104.6177,32.13,93,100,12.66,CA,1699468603
207,diebougou,10.9667,-3.25,89.58,28,100,3.13,BF,1699468603
208,enewetak,11.3474,162.3373,82.67,69,84,19.17,MH,1699468557
209,fort saskatchewan,53.7168,-113.2187,40.46,54,20,12.66,CA,1699468588
210,papao,-17.75,-149.55,80.28,87,66,21.0,PF,1699468603
211,horodenka,48.6727,25.5016,46.6,88,100,14.32,UA,1699468603
212,bereznik,62.8551,42.7072,33.44,87,100,8.72,RU,1699468604
213,afaahiti,-17.75,-149.2833,78.67,85,66,18.77,PF,1699468604
214,san luis de la loma,17.2706,-100.8939,87.12,66,16,6.89,MX,1699468604
215,freetown,8.484,-13.2299,79.93,82,91,5.7,SL,1699468604
216,phulbani,20.4667,84.2333,63.64,48,9,3.06,IN,1699468604
217,primero de mayo,-32.2552,-58.4228,80.55,52,36,11.52,AR,1699468604
218,nizhnevartovsk,60.9344,76.5531,28.42,100,40,11.18,RU,1699468605
219,constantia,44.1833,28.65,56.08,85,100,19.39,RO,1699468605
220,smithers,54.7804,-127.1743,32.32,93,100,5.75,CA,1699468605
221,mount pearl,47.5166,-52.7813,46.33,98,100,9.22,CA,1699468605
222,nemuro,43.3236,145.575,48.13,63,98,7.85,JP,1699468605
223,undurkhaan,47.3194,110.6556,-2.45,85,33,6.96,MN,1699468606
224,thompson,55.7435,-97.8558,30.36,59,75,10.36,CA,1699468606
225,ceeldheer,3.8488,47.1806,81.1,80,100,12.3,SO,1699468606
226,merizo village,13.2658,144.6691,83.93,93,100,17.4,GU,1699468606
227,pariaman,-0.619,100.12,77.05,94,100,2.84,ID,1699468606
228,howard springs,-12.497,131.047,82.31,81,77,7.4,AU,1699468606
229,puerto ayacucho,5.6639,-67.6236,90.72,55,64,1.36,VE,1699468340
230,dudinka,69.4058,86.1778,20.62,92,100,28.99,RU,1699468340
231,severo-yeniseyskiy,60.3725,93.0408,-1.5,99,39,3.78,RU,1699468607
232,mhamid,29.82,-5.72,71.78,24,0,11.92,MA,1699468607
233,manta,-0.95,-80.7333,83.98,70,75,10.36,EC,1699468608
234,tete,-16.1564,33.5867,87.89,51,75,12.66,MZ,1699468609
235,san antonio de pale,-1.4014,5.6325,79.18,78,65,9.93,GQ,1699468609
236,teknaf,20.8624,92.3058,69.4,86,5,7.83,BD,1699468609
237,arraial do cabo,-22.9661,-42.0278,82.36,57,0,26.46,BR,1699468609
238,thunder bay,48.4001,-89.3168,37.38,93,100,4.61,CA,1699468610
239,haiku-pauwela,20.9219,-156.3051,79.03,71,20,5.99,US,1699468610
240,el obeid,13.1842,30.2167,85.19,31,99,4.79,SD,1699468610
241,mpraeso,6.5932,-0.7346,72.41,92,100,2.98,GH,1699468611
242,kragero,58.8693,9.4149,36.45,86,97,7.58,NO,1699468611
243,kolonia town,6.964,158.206,80.6,89,100,5.75,FM,1699468611
244,thinadhoo,0.5333,72.9333,80.71,82,9,9.57,MV,1699468611
245,longgang,37.6508,120.3286,58.78,85,98,6.11,CN,1699468611
246,aqadyr,48.2553,72.8483,39.36,41,86,9.37,KZ,1699468612
247,muhos,64.808,25.9931,31.78,95,100,7.99,FI,1699468612
248,colimes,-1.55,-80.0167,94.68,43,53,1.14,EC,1699468612
249,riberalta,-10.9833,-66.1,86.2,66,75,11.5,BO,1699468612
250,roma,43.2128,-75.4557,37.58,57,0,4.61,US,1699468494
251,saipan,15.1355,145.701,83.1,78,20,11.5,MP,1699468613
252,tulum,20.2167,-87.4667,84.6,50,95,4.65,MX,1699468491
253,barysh,53.6553,47.1123,41.14,96,71,7.11,RU,1699468613
254,crane,31.3974,-102.3501,85.39,21,7,13.44,US,1699468613
255,niamey,13.5137,2.1098,93.49,11,2,5.75,NE,1699468613
256,turpan,42.9333,89.1667,45.91,21,100,1.34,CN,1699468614
257,rongelap,11.1635,166.8941,81.95,80,17,22.82,MH,1699468614
258,khombole,14.7667,-16.7,83.21,45,99,14.79,SN,1699468614
259,talcahuano,-36.7167,-73.1167,64.08,63,0,14.97,CL,1699468614
260,nova sintra,14.8667,-24.7167,73.99,71,100,22.7,CV,1699468614
261,novospasskoye,53.1468,47.7514,42.21,94,19,5.77,RU,1699468614
262,cururupu,-1.8283,-44.8683,89.28,53,99,7.67,BR,1699468615
263,verkhniye kigi,55.4083,58.6044,36.19,98,100,7.74,RU,1699468615
264,bathsheba,13.2167,-59.5167,86.61,74,40,11.5,BB,1699468615
265,linxia chengguanzhen,35.6003,103.2064,35.83,48,0,2.46,CN,1699468615
266,marshfield,44.6689,-90.1718,42.75,93,100,10.36,US,1699468368
267,galesong,-5.3166,119.3661,77.02,78,99,4.92,ID,1699468615
268,barki saria,24.1667,85.8833,65.7,49,3,4.56,IN,1699468616
269,hovd,48.0056,91.6419,23.88,66,53,1.14,MN,1699468616
270,berdigestyakh,62.0989,126.6992,-15.63,100,100,2.08,RU,1699468616
271,polyarnyy,69.1989,33.4478,26.06,77,98,2.37,RU,1699468616
272,vorkuta,67.5,64.0,33.39,100,100,5.21,RU,1699468616
273,yuzhno-kurilsk,44.0306,145.8556,43.38,66,8,5.55,RU,1699468616
274,la passe,45.5549,-0.8967,57.43,91,100,20.07,FR,1699468617
275,hermanus,-34.4187,19.2345,59.2,71,0,8.57,ZA,1699468587
276,podporozh'ye,60.9112,34.1706,36.72,97,100,3.49,RU,1699468617
277,tekkali,18.6167,84.2333,72.88,79,47,4.47,IN,1699468617
278,nishinoomote,30.7333,131.0,71.38,66,100,13.8,JP,1699468617
279,vorgashor,67.5833,63.95,33.12,100,100,5.88,RU,1699468617
280,abay,49.6311,72.8539,32.38,38,99,7.31,KZ,1699468618
281,sisimiut,66.9395,-53.6735,26.26,81,100,5.79,GL,1699468618
282,chemolgan,43.1897,76.5292,38.86,38,100,2.86,KZ,1699468618
283,tralee,52.2704,-9.7026,45.66,78,100,15.48,IE,1699468618
284,udachny,66.4167,112.4,-9.11,92,4,5.7,RU,1699468618
285,vila franca do campo,37.7167,-25.4333,68.88,99,93,11.25,PT,1699468618
286,katsuren-haebaru,26.3369,127.8719,75.97,81,20,4.61,JP,1699468619
287,lhokseumawe,5.1801,97.1507,79.21,84,100,7.72,ID,1699468619
288,al qadarif,14.0349,35.3834,78.31,61,87,9.89,SD,1699468619
289,mejit,10.2753,170.8646,82.26,84,100,26.57,MH,1699468619
290,quellon,-43.1167,-73.6167,51.4,73,100,5.1,CL,1699468619
291,bahia de caraquez,-0.6,-80.4167,84.38,75,74,13.06,EC,1699468620
292,port alfred,-33.5906,26.891,62.19,86,5,3.04,ZA,1699468620
293,camana,-16.6228,-72.7111,70.38,70,39,8.75,PE,1699468620
294,lhasa,29.65,91.1,36.66,52,83,5.53,CN,1699468620
295,port said,31.2565,32.2841,75.18,73,0,8.05,EG,1699468620
296,taiping,4.85,100.7333,79.83,98,100,2.06,MY,1699468335
297,colonia,50.9333,6.95,51.6,83,97,14.97,DE,1699467952
298,bagnols-sur-ceze,44.1599,4.6178,50.65,87,0,3.44,FR,1699468621
299,solnechnyy,50.7214,136.6319,17.02,91,100,1.36,RU,1699468621
300,san mateo del mar,16.2,-95.0,86.34,61,6,24.52,MX,1699468621
301,ancud,-41.8697,-73.8203,53.78,66,36,9.08,CL,1699468621
302,whitecourt,54.1502,-115.6855,38.44,52,75,16.11,CA,1699468621
303,hohhot,40.8106,111.6522,17.89,49,0,11.18,CN,1699468622
304,toliara,-23.35,43.6667,77.68,83,100,3.6,MG,1699468622
305,tolanaro,-25.0319,46.9987,77.07,78,40,18.41,MG,1699468622
306,khawr fakkan,25.3313,56.342,80.65,66,0,3.31,AE,1699468622
307,la paz,-16.5,-68.15,67.98,37,75,14.97,BO,1699468480
308,mugumu,-1.85,34.7,61.68,95,100,1.01,TZ,1699468623
309,south hedland,-20.4089,118.5983,78.73,89,0,3.44,AU,1699468623
310,arkhangel'sk,64.5401,40.5433,33.13,99,100,8.39,RU,1699468623
311,kamennogorsk,60.9545,29.1339,39.72,91,98,2.8,RU,1699468624
312,saskatoon,52.1168,-106.6345,35.58,69,20,25.32,CA,1699468522
313,yanchep,-31.55,115.6833,66.33,83,89,9.82,AU,1699468624
314,inhambane,-23.865,35.3833,73.38,83,20,9.22,MZ,1699468624
315,port douglas,-16.4833,145.4667,74.66,84,68,8.52,AU,1699468625
316,santa marta,11.2408,-74.199,93.25,74,20,4.61,CO,1699468625
317,laguna,38.421,-121.4238,66.29,49,0,10.36,US,1699468625
318,flin flon,54.7682,-101.865,30.04,93,100,4.61,CA,1699468625
319,tiaret,35.371,1.317,49.44,25,0,3.44,DZ,1699468626
320,port augusta,-32.5,137.7667,64.53,57,75,9.82,AU,1699468626
321,rojhan,28.6868,69.9534,77.67,35,3,2.98,PK,1699468626
322,al qusayr,34.5091,36.5798,65.64,65,0,1.45,SY,1699468627
323,tangalle,6.024,80.7911,75.36,89,93,3.89,LK,1699468627
324,kalibo (poblacion),11.7061,122.3644,79.18,90,100,7.81,PH,1699468627
325,tirunelveli,8.7333,77.7,79.05,83,100,3.58,IN,1699468628
326,saudarkrokur,65.7461,-19.6394,32.14,83,13,5.77,IS,1699468628
327,chui,-33.6971,-53.4616,68.29,66,70,10.51,UY,1699468628
328,lompoc,34.6391,-120.4579,74.52,48,0,12.66,US,1699468588
329,san luis,-33.295,-66.3356,81.93,14,0,11.14,AR,1699468629
330,walvis bay,-22.9575,14.5053,63.55,72,3,6.91,NA,1699468629
331,atar,20.5169,-13.0499,82.45,18,0,11.5,MR,1699468629
332,sferracavallo,42.726,12.0956,55.44,81,1,2.19,IT,1699468630
333,kidal,18.4411,1.4078,86.2,10,0,8.32,ML,1699468630
334,torghay,49.6339,63.4981,44.65,75,100,4.32,KZ,1699468630
335,raja,8.4596,25.678,78.91,66,11,3.67,SS,1699468630
336,kinablangan,7.6947,126.5503,78.48,86,98,3.36,PH,1699468632
337,moundou,8.5667,16.0833,82.58,51,96,3.53,TD,1699468632
338,awjilah,29.1081,21.2869,74.43,37,0,7.65,LY,1699468632
339,tejen,37.3834,60.5054,56.1,41,1,5.97,TM,1699468633
340,san jose del guaviare,2.5729,-72.6459,89.11,59,97,1.03,CO,1699468633
341,an nimas,19.1455,42.1201,59.49,50,55,7.94,SA,1699468633
342,kurumkan,54.3,110.3,17.13,82,97,4.0,RU,1699468634
343,kivioli,59.3531,26.9711,40.66,91,82,3.02,EE,1699468634
344,machico,32.7,-16.7667,68.63,75,40,6.91,PT,1699468634
345,cartaxo,39.1602,-8.7874,61.77,99,100,1.01,PT,1699468346
346,illizi,26.4833,8.4667,82.2,11,100,13.47,DZ,1699468635
347,san luis rio colorado,32.4631,-114.7767,73.9,18,0,21.34,MX,1699468537
348,corumba,-19.0092,-57.6533,105.51,31,0,12.66,BR,1699468478
349,hirara,24.8,125.2833,70.07,88,40,5.75,JP,1699468636
350,vinzili,56.9594,65.7708,32.56,89,71,4.34,RU,1699468636
351,melekeok village,7.4957,134.6367,81.16,89,40,3.44,PW,1699468637
352,page,36.9147,-111.4558,56.68,32,0,3.44,US,1699468637
353,sao jose da coroa grande,-8.8978,-35.1478,81.1,67,1,11.48,BR,1699468637
354,attapeu,14.8,106.8333,74.97,92,26,1.19,LA,1699468638
355,constitucion,-35.3333,-72.4167,64.31,56,0,18.01,CL,1699468638
356,anqing,30.5092,117.0506,64.69,80,100,1.3,CN,1699468595
357,yerofey pavlovich,53.9667,121.9667,12.94,89,100,4.88,RU,1699468639
358,palmer,42.1584,-72.3287,44.15,41,75,13.8,US,1699468639
359,trinidad,-14.8333,-64.9,98.58,41,40,9.22,BO,1699468639
360,nagqu,31.5,92.0,17.53,60,100,2.1,CN,1699468639
361,carnarvon,-24.8667,113.6333,69.04,77,0,20.8,AU,1699468640
362,kem',64.9555,34.5793,30.61,85,91,8.14,RU,1699468640
363,le vauclin,14.5452,-60.8388,87.85,66,75,11.5,MQ,1699468640
364,iquitos,-3.7481,-73.2472,87.84,70,75,4.61,PE,1699468641
365,ambodifotatra,-16.9833,49.85,77.83,78,8,3.74,MG,1699468642
366,kabompo,-13.5927,24.2008,66.52,90,100,8.19,ZM,1699468642
367,klyuchi,52.2667,79.1667,32.92,57,100,7.34,RU,1699468608
368,aberystwyth,52.4155,-4.0829,50.9,74,100,14.63,GB,1699468643
369,sechura,-5.5569,-80.8222,80.67,54,15,16.13,PE,1699468645
370,inirida,3.8653,-67.9239,87.78,65,42,2.55,CO,1699468479
371,vila velha,-20.3297,-40.2925,80.55,67,0,12.66,BR,1699468647
372,kourou,5.1552,-52.6478,89.65,66,74,11.65,GF,1699468648
373,korla,41.7597,86.1469,43.9,25,93,0.58,CN,1699468648
374,kencong,-8.2833,113.3667,77.38,87,63,0.87,ID,1699468649
375,tingi,-11.3,35.0333,73.87,42,7,8.81,TZ,1699468649
376,aral,40.5156,81.2636,45.9,23,17,1.72,CN,1699468649
377,paita,-5.0892,-81.1144,73.33,71,14,19.13,PE,1699468649
378,lipkovo,42.1564,21.5853,49.23,85,99,5.84,MK,1699468650
379,leua,48.2156,18.6071,48.49,76,40,4.09,SK,1699468380
380,nhamunda,-2.1861,-56.7131,92.28,44,100,3.71,BR,1699468650
381,ozherel'ye,54.7961,38.2672,45.59,91,100,4.21,RU,1699468650
382,ramanuj ganj,23.8,83.7,62.19,54,0,4.05,IN,1699468651
383,ujae,8.9322,165.7642,82.98,79,93,22.12,MH,1699468651
384,tshabong,-26.05,22.45,79.65,13,0,9.69,BW,1699468651
385,tianpeng,30.9866,103.9393,63.63,74,99,2.46,CN,1699468651
386,sorong,-0.8833,131.25,77.9,89,100,6.69,ID,1699468651
387,ghat,24.9647,10.1728,78.01,12,100,7.07,LY,1699468652
388,brisas de zicatela,15.8369,-97.0419,88.32,48,0,6.91,MX,1699468652
389,zyryanovsk,49.7386,84.2719,15.28,93,16,0.78,KZ,1699468652
390,san martin,-33.081,-68.4681,75.74,13,0,12.3,AR,1699468652
391,san felipe,10.3399,-68.7425,92.64,44,24,7.52,VE,1699468653
392,happy valley-goose bay,53.3168,-60.3315,28.71,86,100,21.85,CA,1699468653
393,stornoway,58.2093,-6.3865,42.76,85,40,17.27,GB,1699468653
394,vilyuysk,63.7553,121.6247,-3.95,93,100,3.76,RU,1699468390
395,namtsy,62.7161,129.6658,-15.05,99,97,2.48,RU,1699468654
396,tarko-sale,64.9225,77.785,30.06,93,100,20.45,RU,1699468654
397,krasnokholm,51.5979,54.1567,45.32,83,73,9.69,RU,1699468654
398,tocopilla,-22.092,-70.1979,68.11,68,25,5.53,CL,1699468655
399,oliver,49.1831,-119.5524,42.44,75,6,1.14,CA,1699468565
400,fortuna,40.5982,-124.1573,53.98,94,0,3.44,US,1699468364
401,i-n-salah,27.1935,2.4607,85.3,9,19,9.24,DZ,1699468656
402,diapaga,12.0708,1.7889,86.77,18,67,6.33,BF,1699468656
403,novyy urgal,51.0736,132.5642,20.41,95,100,1.9,RU,1699468657
404,karratha,-20.7377,116.8463,80.62,37,0,13.96,AU,1699468657
405,serdar,38.9764,56.2757,59.16,44,0,1.05,TM,1699468657
406,mammoth lakes,37.6485,-118.9721,37.26,46,0,4.61,US,1699468658
407,fereydun kenar,36.6864,52.5225,61.54,74,6,9.46,IR,1699468658
408,tselinnoye,53.0833,85.6667,22.17,98,95,1.92,RU,1699468658
409,yorkton,51.2167,-102.4677,33.64,93,100,16.11,CA,1699468581
410,eyl,7.9803,49.8164,79.43,75,29,16.73,SO,1699468659
411,egersund,58.4513,5.9997,47.08,83,100,25.14,NO,1699468659
412,lamu,-2.2717,40.902,77.22,83,100,2.21,KE,1699468659
413,yuanping,38.7153,112.7575,37.42,25,0,11.81,CN,1699468660
414,vernon,50.2581,-119.2691,45.23,93,23,4.61,CA,1699468520
415,sao benedito do rio preto,-3.3336,-43.5283,102.38,20,100,3.87,BR,1699468660
416,zakynthos,37.7914,20.8953,65.64,88,20,3.44,GR,1699468660
417,masterton,-40.9597,175.6575,45.88,84,93,4.72,NZ,1699468661
418,yanbu,24.0891,38.0637,87.84,42,0,5.75,SA,1699468661
419,kilindoni,-7.9139,39.6668,79.93,80,10,9.44,TZ,1699468661
420,akjoujt,19.6969,-14.4164,77.16,26,100,11.61,MR,1699468661
421,long beach,33.767,-118.1892,77.16,52,0,1.99,US,1699468443
422,encarnacion de diaz,21.5167,-102.2333,73.81,14,5,3.04,MX,1699468661
423,hilo,19.7297,-155.09,79.61,71,75,5.75,US,1699468561
424,gazojak,41.1875,61.4036,53.76,47,6,10.67,TM,1699468662
425,hadibu,12.65,54.0333,79.38,73,29,7.18,YE,1699468662
426,khandyga,62.6667,135.6,-30.48,100,10,2.35,RU,1699468662
427,saynshand,44.8824,110.1163,5.77,78,3,14.67,MN,1699468662
428,gatesville,31.4352,-97.7439,81.36,66,0,11.5,US,1699468663
429,ar ruways,24.1103,52.7306,79.52,60,0,7.81,AE,1699468663
430,enshi,30.3,109.4833,60.6,97,86,1.86,CN,1699468663
431,colares,38.7992,-9.4469,64.76,89,20,18.01,PT,1699468663
432,timbuktu,16.7735,-3.0074,87.84,16,92,11.21,ML,1699468663
433,morehead city,34.7229,-76.726,76.03,54,0,8.05,US,1699468368
434,bollullos par del condado,37.3413,-6.5397,60.48,64,100,2.84,ES,1699468663
435,hami,42.8,93.45,38.84,31,95,4.9,CN,1699468664
436,oltinko'l,40.8011,72.1634,56.08,80,100,0.36,UZ,1699468664
437,kyneton,-37.25,144.4333,54.07,95,80,5.01,AU,1699468664
438,kitimat,54.0524,-128.6534,42.69,63,100,1.36,CA,1699468664
439,lillehammer,61.1146,10.4674,33.85,99,100,1.81,NO,1699468665
440,sinabang,2.4803,96.3801,78.6,85,100,3.87,ID,1699468665
441,urangan,-25.3,152.9,67.73,64,0,9.17,AU,1699468665
442,ghatanji,20.1333,78.3167,71.06,47,38,1.97,IN,1699468665
443,pionerskiy,54.9508,20.2275,48.15,85,99,24.02,RU,1699468665
444,sidrolandia,-20.9319,-54.9614,98.65,27,75,11.68,BR,1699468665
445,bonthe,7.5264,-12.505,79.63,85,59,6.67,SL,1699468666
446,atherton,53.5237,-2.4935,47.43,82,100,7.34,GB,1699468666
447,kafanchan,9.5833,8.3,73.62,50,40,1.12,NG,1699468666
448,khon kaen,16.5,102.0833,76.46,84,72,3.15,TH,1699468666
449,zapolyarnyy,69.4154,30.8136,27.68,86,42,1.63,RU,1699468642
450,tongliao,43.6125,122.2653,25.68,89,100,5.55,CN,1699468667
451,kununurra,-15.7667,128.7333,78.78,83,39,2.3,AU,1699468667
452,iron river,46.0927,-88.6423,36.36,97,100,6.51,US,1699468667
453,sao joao da barra,-21.6403,-41.0511,82.49,64,0,14.56,BR,1699468667
454,bamboo flat,11.7,92.7167,78.89,94,20,2.3,IN,1699468667
455,itacarambi,-15.1022,-44.0919,88.74,36,0,3.51,BR,1699468667
456,foundiougne,14.1333,-16.4667,95.05,21,96,7.52,SN,1699468668
457,terenozek,45.05,64.9833,50.52,81,100,17.22,KZ,1699468668
458,monroe,43.1501,-77.6831,39.42,67,100,5.75,US,1699468449
459,mahajanga,-15.7167,46.3167,82.42,74,20,5.75,MG,1699468668
460,sisophon,13.5859,102.9737,75.54,95,100,3.78,KH,1699468668
461,babai,22.7,77.9333,69.78,45,100,0.87,IN,1699468669
462,saint-christol-les-ales,44.0833,4.0833,49.95,86,52,2.42,FR,1699468669
463,lautoka,-17.6167,177.4667,76.86,83,100,6.91,FJ,1699468669
464,cercado abajo,18.7268,-71.5174,81.01,64,73,4.29,DO,1699468669
465,kapit,2.0167,112.9333,74.05,100,100,2.26,MY,1699468669
466,mukalla,14.5425,49.1242,79.68,68,16,0.13,YE,1699468670
467,playa del carmen,20.6274,-87.0799,86.02,58,40,6.91,MX,1699468670
468,masuguru,-11.3667,38.4167,85.14,54,1,11.43,TZ,1699468670
469,northam,51.0333,-4.2167,49.24,83,100,11.39,GB,1699468670
470,mpulungu,-8.7623,31.1141,77.0,69,98,2.04,ZM,1699468670
471,sinop,41.7711,34.8709,60.12,57,99,8.72,TR,1699468671
472,madhupur,24.25,86.65,67.39,49,0,5.12,IN,1699468671
473,pangoa,-12.1167,-73.0,89.87,47,100,3.6,PE,1699468671
474,brookings,44.3114,-96.7984,53.46,63,0,20.71,US,1699468442
475,oranjemund,-28.55,16.4333,59.04,75,0,20.98,NA,1699468671
476,ribeira brava,32.65,-17.0667,68.63,70,54,4.21,PT,1699468672
477,myeik,12.4333,98.6,78.84,85,43,2.08,MM,1699468672
478,nueva gerona,21.8833,-82.8,81.73,63,46,10.29,CU,1699468672
479,sanming,26.2486,117.6186,66.06,96,40,1.81,CN,1699468672
480,canavieiras,-15.675,-38.9472,79.23,58,15,9.69,BR,1699468672
481,chernyshevskiy,63.0128,112.4714,-12.24,100,25,1.99,RU,1699468672
482,abu dhabi,24.4667,54.3667,84.94,56,0,4.61,AE,1699468424
483,tidjikja,18.5564,-11.4271,75.78,19,45,9.89,MR,1699468673
484,kayes,14.0,-11.0,88.95,19,76,7.43,ML,1699468673
485,puerto baquerizo moreno,-0.9,-89.6,81.59,69,75,18.41,EC,1699468673
486,general mosconi,-23.1851,-62.303,108.99,20,100,11.92,AR,1699468673
487,eraan,9.0629,117.7016,77.27,90,99,1.28,PH,1699468673
488,den helder,52.9599,4.7593,51.98,94,75,28.99,NL,1699468674
489,olinda,-8.0089,-34.8553,83.93,65,40,16.11,BR,1699468674
490,lorengau,-2.0226,147.2712,79.97,85,94,10.29,PG,1699468640
491,nuuk,64.1835,-51.7216,32.61,86,75,3.44,GL,1699468674
492,okhotsk,59.3833,143.3,-1.61,86,43,13.4,RU,1699468674
493,rio grande,-32.035,-52.0986,77.11,77,99,6.02,BR,1699468675
494,margate,51.3813,1.3862,51.31,95,100,7.0,GB,1699468675
495,serhiyivka,46.0272,30.3768,59.77,66,100,10.2,UA,1699468675
496,nar'yan-mar,67.6713,53.087,33.12,100,100,8.99,RU,1699468675
497,ulladulla,-35.35,150.4667,55.76,80,100,3.58,AU,1699468675
498,al bardiyah,31.7561,25.0865,70.25,80,5,4.16,LY,1699468676
499,tilcara,-23.5776,-65.3509,61.05,68,84,9.17,AR,1699468676
500,kimbe,-5.5502,150.1429,76.05,90,100,5.23,PG,1699468676
501,dzhalagash,45.0833,64.6667,49.91,83,100,16.17,KZ,1699468676
502,aripuana,-9.1667,-60.6333,90.28,48,100,0.92,BR,1699468631
503,fiche,9.8,38.7333,48.81,62,73,5.46,ET,1699468677
504,lionel town,17.8101,-77.2406,89.49,62,96,5.7,JM,1699468677
505,kudat,6.8837,116.8477,75.13,100,100,0.0,MY,1699468677
506,kirakira,-10.4544,161.9205,78.33,86,92,7.99,SB,1699468677
507,mogocha,53.7333,119.7667,11.3,83,100,3.69,RU,1699468677
508,pointe-noire,-4.7761,11.8635,78.44,89,100,3.09,CG,1699468677
509,celestun,20.8667,-90.4,83.14,60,35,11.36,MX,1699468678
510,ta`u,-14.2336,-169.5144,80.83,82,100,15.99,AS,1699468678
511,la palma,33.8464,-118.0467,77.09,47,20,1.99,US,1699468678
512,miri,4.4148,114.0089,75.34,94,40,3.44,MY,1699468678
513,rosarito,32.3333,-117.0333,69.48,50,100,13.71,MX,1699468679
514,holualoa,19.6228,-155.9522,75.09,82,100,4.61,US,1699468679
515,almeirim,-1.5233,-52.5817,99.97,26,50,5.73,BR,1699468679
516,wotho,10.1657,166.0102,82.36,77,97,21.65,MH,1699468679
517,valenca,-13.3703,-39.0731,79.9,66,41,7.87,BR,1699468680
518,carauari,-4.8828,-66.8958,92.98,42,59,2.37,BR,1699468680
519,qom,34.6401,50.8764,62.17,44,0,3.78,IR,1699468680
520,chinde,26.8418,88.0763,53.46,80,3,4.47,NP,1699468680
521,valdivia,-39.8142,-73.2459,60.89,55,81,4.9,CL,1699468681
522,richards bay,-28.783,32.0377,67.66,76,98,6.38,ZA,1699468681
523,mananjary,-21.2167,48.3333,74.57,84,100,7.47,MG,1699468681
524,toamasina,-18.1667,49.3833,75.2,94,40,3.44,MG,1699468681
525,bien hoa,10.95,106.8167,82.38,93,100,4.41,VN,1699468682
526,andergrove,-21.0833,149.1833,70.65,75,36,9.91,AU,1699468682
527,laojunmiao,39.8333,97.7333,32.18,37,45,3.27,CN,1699468682
528,amnat charoen,15.9167,104.75,74.43,87,60,7.74,TH,1699468682
529,victoria falls,-17.9235,25.843,86.85,33,96,4.12,ZW,1699468618
530,gonabad,34.3529,58.6837,55.18,67,6,10.07,IR,1699468683
531,mahina,-17.5065,-149.489,80.37,74,20,3.44,PF,1699468683
532,mugia,43.1041,-9.2179,60.17,77,37,10.56,ES,1699468683
533,harstad,68.799,16.5293,35.15,95,34,4.85,NO,1699468683
534,salalah,17.0151,54.0924,80.69,65,0,3.44,OM,1699468683
535,akrehamn,59.2667,5.1833,48.42,66,75,16.11,NO,1699468683
536,kismayo,-0.3582,42.5454,79.79,81,100,4.88,SO,1699468684
537,saldanha,-33.0117,17.9442,60.85,76,0,21.16,ZA,1699468684
538,kogalym,62.2654,74.4791,28.22,92,100,13.2,RU,1699468684
539,hammerfest,70.6634,23.6821,32.45,74,75,12.66,NO,1699468684
540,strezhevoy,60.7333,77.5889,24.96,96,61,8.99,RU,1699468685
541,mogadishu,2.0371,45.3438,81.93,79,10,9.35,SO,1699468640
542,calama,-22.4667,-68.9333,82.89,8,0,24.16,CL,1699468628
543,taltal,-25.4,-70.4833,64.9,71,33,4.92,CL,1699468685
544,bilozerka,46.6248,32.4425,58.75,80,100,9.08,UA,1699468685
545,capayan,-28.761,-66.0502,93.79,24,0,8.95,AR,1699468686
546,ebon,4.582,168.6964,81.55,83,100,10.65,MH,1699468686
547,taco pozo,-25.6167,-63.2833,97.3,29,0,7.83,AR,1699468686
548,pahrump,36.2083,-115.9839,63.25,21,0,13.0,US,1699468686
549,bac lieu,9.285,105.7244,79.11,88,100,8.61,VN,1699468686
550,hamilton,39.1834,-84.5333,79.75,59,20,13.8,US,1699468419
551,paris,48.8534,2.3488,55.58,79,100,18.41,FR,1699468260
552,saint-paul,-21.0096,55.2707,75.31,98,10,1.9,RE,1699468687
553,gadzhiyevo,69.2551,33.3362,26.85,77,100,1.88,RU,1699468687
554,robat karim,35.4846,51.0829,60.66,54,0,0.0,IR,1699468687
555,quepos,9.4236,-84.1652,83.93,81,77,5.35,CR,1699468687
556,yacuiba,-22.038,-63.6797,99.37,36,7,9.22,BO,1699468687
557,reggane,26.7158,0.1714,80.04,26,100,11.59,DZ,1699468688
558,volovets,48.7109,23.1851,39.25,97,36,1.36,UA,1699468688
559,djibo,14.1022,-1.6306,90.86,15,100,7.05,BF,1699468688
560,karukh,34.4811,62.5863,49.05,76,13,12.57,AF,1699468688
561,hoemul-li,41.4339,129.67,44.37,74,20,4.59,KP,1699468688
562,port pirie,-33.1833,138.0167,62.85,48,4,5.79,AU,1699468689
563,kathu,7.9178,98.3332,78.62,80,11,4.83,TH,1699468689
564,cidreira,-30.1811,-50.2056,74.48,72,100,4.99,BR,1699468689
565,lloydminster,53.2835,-110.0016,34.02,69,20,21.85,CA,1699468524
566,chakulia,22.4833,86.7167,68.05,51,2,4.94,IN,1699468690
567,belyy yar,53.6039,91.3903,8.49,85,100,0.0,RU,1699468691
568,mata de sao joao,-12.5303,-38.2992,80.35,81,80,7.92,BR,1699468691
569,sarandi del yi,-33.35,-55.6333,77.74,56,52,7.43,UY,1699468697
570,new norfolk,-42.7826,147.0587,58.91,99,48,1.25,AU,1699468697
571,tamandare,-8.7597,-35.1047,81.3,66,0,11.05,BR,1699468697
572,opuwo,-18.0607,13.84,76.5,27,0,10.29,NA,1699468697
573,hauterive,46.0901,3.4459,48.99,70,74,6.49,FR,1699468697
574,at taj,24.2049,23.2857,75.22,22,0,10.67,LY,1699468698
575,usogorsk,63.4106,48.6872,38.66,99,100,7.16,RU,1699468698
576,coquimbo,-29.9533,-71.3436,67.73,63,0,17.27,CL,1699468677
577,onega,63.9061,38.1404,30.78,92,100,7.02,RU,1699468698
578,belomorsk,64.5232,34.7668,32.61,80,100,6.87,RU,1699468698
579,jayapura,-2.5333,140.7,76.39,89,87,4.65,ID,1699468651
580,kiruna,67.8557,20.2251,25.72,100,100,3.44,SE,1699468699
581,torbali,38.1519,27.3622,63.63,84,6,2.46,TR,1699468699
582,ust'-kulom,61.6864,53.6902,34.47,97,100,4.83,RU,1699468699
